[{"id":"kagoshima_port","name":"鹿児島港(鹿児島本港北埠頭)","nameEn":"Kagoshima Port","pref":"鹿児島県","city":"鹿児島市","lat":31.5966,"lng":130.5619,"targets":[]},{"id":"nase_port","name":"名瀬港","nameEn":"Naze Port","pref":"鹿児島県","city":"奄美市","lat":28.3776,"lng":129.4945,"targets":["奄美市","大和村","宇検村","龍郷町"]},{"id":"koniya_port","name":"古仁屋港","nameEn":"Koniya Port","pref":"鹿児島県","city":"瀬戸内町","lat":28.0333,"lng":129.3167,"targets":["瀬戸内町"]},{"id":"hetono_port","name":"平土野港","nameEn":"Hetono Port","pref":"鹿児島県","city":"天城町","lat":27.81,"lng":128.87,"targets":["天城町"]},{"id":"china_port","name":"知名港(白浜港)","nameEn":"China Port","pref":"鹿児島県","city":"知名町","lat":27.35,"lng":128.55,"targets":["知名町"]},{"id":"kametoku_port","name":"亀徳港","nameEn":"Kametoku Port","pref":"鹿児島県","city":"徳之島町","lat":27.8206,"lng":128.935,"targets":["徳之島町","伊仙町"]},{"id":"wadomari_port","name":"和泊港","nameEn":"Wadomari Port","pref":"鹿児島県","city":"和泊町","lat":27.3833,"lng":128.5667,"targets":["和泊町"]},{"id":"yoron_port","name":"与論港","nameEn":"Yoron Port","pref":"鹿児島県","city":"与論町","lat":27.05,"lng":128.4167,"targets":["与論町"]},{"id":"nishinoomote_port","name":"西之表港","nameEn":"Nishinoomote Port","pref":"鹿児島県","city":"西之表市","lat":30.7383,"lng":130.995,"targets":["西之表市","中種子町","南種子町"]},{"id":"miyanoura_port","name":"宮之浦港","nameEn":"Miyanoura Port","pref":"鹿児島県","city":"屋久島町","lat":30.4283,"lng":130.575,"targets":["屋久島町"]},{"id":"anbo_port","name":"安房港","nameEn":"Anbo Port","pref":"鹿児島県","city":"屋久島町","lat":30.34,"lng":130.585,"targets":[]},{"id":"hakata_port","name":"博多港","nameEn":"Hakata Port","pref":"福岡県","city":"福岡市","lat":33.6083,"lng":130.4033,"targets":[]},{"id":"karatsuhigashi_port","name":"唐津東港","nameEn":"Karatsu-Higashi Port","pref":"佐賀県","city":"唐津市","lat":33.455,"lng":129.995,"targets":[]},{"id":"gonoura_port","name":"郷ノ浦港","nameEn":"Gonoura Port","pref":"長崎県","city":"壱岐市","lat":33.7481,"lng":129.7264,"targets":["壱岐市"]},{"id":"ashibe_port","name":"芦辺港","nameEn":"Ashibe Port","pref":"長崎県","city":"壱岐市","lat":33.8083,"lng":129.7614,"targets":[]},{"id":"indoji_port","name":"印通寺港","nameEn":"Indoji Port","pref":"長崎県","city":"壱岐市","lat":33.7328,"lng":129.7864,"targets":[]},{"id":"izuhara_port","name":"厳原港","nameEn":"Izuhara Port","pref":"長崎県","city":"対馬市","lat":34.2011,"lng":129.2903,"targets":["対馬市"]},{"id":"hitakatsu_port","name":"比田勝港","nameEn":"Hitakatsu Port","pref":"長崎県","city":"対馬市","lat":34.65,"lng":129.4833,"targets":[]},{"id":"nagasaki_port","name":"長崎港","nameEn":"Nagasaki Port","pref":"長崎県","city":"長崎市","lat":32.7414,"lng":129.8631,"targets":[]},{"id":"fukue_port","name":"福江港","nameEn":"Fukue Port","pref":"長崎県","city":"五島市","lat":32.6961,"lng":128.8433,"targets":["五島市"]},{"id":"narao_port","name":"奈良尾港","nameEn":"Narao Port","pref":"長崎県","city":"新上五島町","lat":32.85,"lng":129,"targets":["新上五島町","小値賀町"]},{"id":"misumi_port","name":"三角港","nameEn":"Misumi Port","pref":"熊本県","city":"宇城市","lat":32.6167,"lng":130.45,"targets":[]},{"id":"hondo_port","name":"本渡港","nameEn":"Hondo Port","pref":"熊本県","city":"天草市","lat":32.4611,"lng":130.165,"targets":["天草市","上天草市","苓北町"]},{"id":"onikeshi_port","name":"鬼池港","nameEn":"Onikeshi Port","pref":"熊本県","city":"天草市","lat":32.5817,"lng":130.2261,"targets":[]},{"id":"kuchinotsu_port","name":"口之津港","nameEn":"Kuchinotsu Port","pref":"長崎県","city":"南島原市","lat":32.5642,"lng":130.1922,"targets":["南島原市"]}]